{
  "type": "FeatureCollection",
  "generator": "overpass-turbo",
  "copyright": "The data included in this document is from www.openstreetmap.org. The data is made available under ODbL.",
  "timestamp": "2024-03-07T01:07:53Z",
  "features": [
    {
      "type": "Feature",
      "properties": {
        "@id": "relation/2972143",
        "building": "residential",
        "type": "multipolygon",
        "@geometry": "center"
      },
      "geometry": {
        "type": "Point",
        "coordinates": [
          121.031278,
          14.4553216
        ]
      },
      "id": "relation/2972143"
    },
    {
      "type": "Feature",
      "properties": {
        "@id": "relation/3428162",
        "building": "residential",
        "building:levels": "12",
        "height": "45",
        "name": "Cordova Tower",
        "type": "multipolygon",
        "@geometry": "center"
      },
      "geometry": {
        "type": "Point",
        "coordinates": [
          121.101141,
          14.6362389
        ]
      },
      "id": "relation/3428162"
    },
    {
      "type": "Feature",
      "properties": {
        "@id": "relation/3428163",
        "building": "residential",
        "building:levels": "12",
        "height": "45",
        "name": "Barcelona Tower",
        "type": "multipolygon",
        "@geometry": "center"
      },
      "geometry": {
        "type": "Point",
        "coordinates": [
          121.1003559,
          14.6364459
        ]
      },
      "id": "relation/3428163"
    },
    {
      "type": "Feature",
      "properties": {
        "@id": "relation/3428164",
        "building": "residential",
        "name": "Alicante Tower",
        "type": "multipolygon",
        "@geometry": "center"
      },
      "geometry": {
        "type": "Point",
        "coordinates": [
          121.0996249,
          14.6366253
        ]
      },
      "id": "relation/3428164"
    },
    {
      "type": "Feature",
      "properties": {
        "@id": "relation/3862836",
        "building": "residential",
        "building:levels": "12",
        "type": "multipolygon",
        "@geometry": "center"
      },
      "geometry": {
        "type": "Point",
        "coordinates": [
          121.010626,
          14.5867079
        ]
      },
      "id": "relation/3862836"
    },
    {
      "type": "Feature",
      "properties": {
        "@id": "relation/4134727",
        "building": "residential",
        "type": "multipolygon",
        "@geometry": "center"
      },
      "geometry": {
        "type": "Point",
        "coordinates": [
          121.0020035,
          14.637849
        ]
      },
      "id": "relation/4134727"
    },
    {
      "type": "Feature",
      "properties": {
        "@id": "way/4987031",
        "building": "residential",
        "building:levels": "1",
        "layer": "0",
        "name": "Manhattan Parkway",
        "@geometry": "center"
      },
      "geometry": {
        "type": "Point",
        "coordinates": [
          121.0542922,
          14.6231652
        ]
      },
      "id": "way/4987031"
    },
    {
      "type": "Feature",
      "properties": {
        "@id": "relation/5416938",
        "building": "residential",
        "building:levels": "1",
        "name": "Shell Residences",
        "type": "multipolygon",
        "@geometry": "center"
      },
      "geometry": {
        "type": "Point",
        "coordinates": [
          120.9864893,
          14.5365551
        ]
      },
      "id": "relation/5416938"
    },
    {
      "type": "Feature",
      "properties": {
        "@id": "relation/6203483",
        "addr:city": "Manila",
        "addr:housenumber": "975",
        "addr:province": "Metro Manila",
        "addr:street": "F. R. Hidalgo Street",
        "building": "residential",
        "building:levels": "2",
        "heritage": "yes",
        "roof:shape": "gabled",
        "type": "multipolygon",
        "@geometry": "center"
      },
      "geometry": {
        "type": "Point",
        "coordinates": [
          120.9861204,
          14.5985236
        ]
      },
      "id": "relation/6203483"
    },
    {
      "type": "Feature",
      "properties": {
        "@id": "relation/6203499",
        "addr:city": "Manila",
        "addr:province": "Metro Manila",
        "addr:street": "F. R. Hidalgo Street",
        "alt_name": "Casa Hidalgo",
        "building": "residential",
        "building:levels": "15",
        "height": "53.6",
        "heritage": "yes",
        "name": "Isabelle de Hidalgo",
        "note": "old site of Casa Hidalgo",
        "old_name": "Rafael Enriquez House",
        "type": "multipolygon",
        "wikidata": "Q23048145",
        "wikipedia": "en:Casa Hidalgo",
        "@geometry": "center"
      },
      "geometry": {
        "type": "Point",
        "coordinates": [
          120.9864106,
          14.598205
        ]
      },
      "id": "relation/6203499"
    },
    {
      "type": "Feature",
      "properties": {
        "@id": "relation/6788177",
        "addr:city": "Mandaluyong",
        "addr:street": "EDSA",
        "addr:street:corner": "Shaw Boulevard",
        "building": "residential",
        "name": "One Shangri-La Place",
        "type": "multipolygon",
        "wikidata": "Q28129038",
        "wikipedia": "en:One Shangri-La Place",
        "@geometry": "center"
      },
      "geometry": {
        "type": "Point",
        "coordinates": [
          121.0555837,
          14.5816886
        ]
      },
      "id": "relation/6788177"
    },
    {
      "type": "Feature",
      "properties": {
        "@id": "relation/8035181",
        "building": "residential",
        "building:levels": "13",
        "height": "46.4",
        "name": "El Pueblo A",
        "type": "multipolygon",
        "@geometry": "center"
      },
      "geometry": {
        "type": "Point",
        "coordinates": [
          121.0122549,
          14.5954951
        ]
      },
      "id": "relation/8035181"
    },
    {
      "type": "Feature",
      "properties": {
        "@id": "relation/8035182",
        "building": "residential",
        "building:levels": "13",
        "height": "46.4",
        "name": "El Pueblo B and C",
        "type": "multipolygon",
        "@geometry": "center"
      },
      "geometry": {
        "type": "Point",
        "coordinates": [
          121.012525,
          14.5958023
        ]
      },
      "id": "relation/8035182"
    },
    {
      "type": "Feature",
      "properties": {
        "@id": "relation/9876807",
        "building": "residential",
        "building:levels": "42",
        "name": "Breeze Residence",
        "type": "building",
        "@geometry": "center"
      },
      "geometry": {
        "type": "Point",
        "coordinates": [
          120.9894092,
          14.5555151
        ]
      },
      "id": "relation/9876807"
    },
    {
      "type": "Feature",
      "properties": {
        "@id": "relation/13988886",
        "building": "residential",
        "building:levels": "31",
        "type": "building",
        "@geometry": "center"
      },
      "geometry": {
        "type": "Point",
        "coordinates": [
          120.9731362,
          14.5964467
        ]
      },
      "id": "relation/13988886"
    },
    {
      "type": "Feature",
      "properties": {
        "@id": "relation/14008838",
        "building": "residential",
        "type": "multipolygon",
        "@geometry": "center"
      },
      "geometry": {
        "type": "Point",
        "coordinates": [
          121.0542922,
          14.6231652
        ]
      },
      "id": "relation/14008838"
    },
    {
      "type": "Feature",
      "properties": {
        "@id": "relation/14040775",
        "addr:city": "Pasig",
        "addr:housenumber": "101",
        "addr:street": "Celery Drive",
        "building": "residential",
        "building:levels": "2",
        "name": "Luxury Plaza",
        "type": "multipolygon",
        "@geometry": "center"
      },
      "geometry": {
        "type": "Point",
        "coordinates": [
          121.0718528,
          14.5888619
        ]
      },
      "id": "relation/14040775"
    },
    {
      "type": "Feature",
      "properties": {
        "@id": "relation/14208751",
        "building": "residential",
        "building:levels": "24",
        "type": "building",
        "@geometry": "center"
      },
      "geometry": {
        "type": "Point",
        "coordinates": [
          120.999437,
          14.5426382
        ]
      },
      "id": "relation/14208751"
    },
    {
      "type": "Feature",
      "properties": {
        "@id": "relation/14208752",
        "building": "residential",
        "building:levels": "4",
        "type": "building",
        "@geometry": "center"
      },
      "geometry": {
        "type": "Point",
        "coordinates": [
          120.9996621,
          14.5423764
        ]
      },
      "id": "relation/14208752"
    },
    {
      "type": "Feature",
      "properties": {
        "@id": "relation/16207441",
        "building": "residential",
        "building:levels": "31",
        "type": "building",
        "@geometry": "center"
      },
      "geometry": {
        "type": "Point",
        "coordinates": [
          120.9927454,
          14.5667895
        ]
      },
      "id": "relation/16207441"
    },
    {
      "type": "Feature",
      "properties": {
        "@id": "relation/17235636",
        "building": "residential",
        "building:levels": "8",
        "type": "building",
        "@geometry": "center"
      },
      "geometry": {
        "type": "Point",
        "coordinates": [
          121.0619454,
          14.5734464
        ]
      },
      "id": "relation/17235636"
    },
    {
      "type": "Feature",
      "properties": {
        "@id": "way/22788857",
        "building": "residential",
        "building:levels": "6",
        "@geometry": "center"
      },
      "geometry": {
        "type": "Point",
        "coordinates": [
          121.0162523,
          14.5618777
        ]
      },
      "id": "way/22788857"
    },
    {
      "type": "Feature",
      "properties": {
        "@id": "way/22927860",
        "addr:city": "Makati",
        "addr:postcode": "1226",
        "building": "residential",
        "building:levels": "10",
        "name": "Le Parc",
        "@geometry": "center"
      },
      "geometry": {
        "type": "Point",
        "coordinates": [
          121.0259349,
          14.556676
        ]
      },
      "id": "way/22927860"
    },
    {
      "type": "Feature",
      "properties": {
        "@id": "way/24061861",
        "addr:city": "Pasay",
        "addr:street": "Park Avenue",
        "building": "residential",
        "building:levels": "21",
        "height": "75",
        "name": "Park Avenue Mansions",
        "@geometry": "center"
      },
      "geometry": {
        "type": "Point",
        "coordinates": [
          120.9984022,
          14.5403192
        ]
      },
      "id": "way/24061861"
    },
    {
      "type": "Feature",
      "properties": {
        "@id": "way/24547892",
        "building": "residential",
        "building:levels": "24",
        "height": "87.6",
        "name": "Hidalgo Place",
        "wikidata": "Q30634041",
        "wikipedia": "en:Hidalgo Place",
        "@geometry": "center"
      },
      "geometry": {
        "type": "Point",
        "coordinates": [
          121.035328,
          14.5637719
        ]
      },
      "id": "way/24547892"
    },
    {
      "type": "Feature",
      "properties": {
        "@id": "way/24547950",
        "building": "residential",
        "building:levels": "30",
        "height": "107",
        "name": "Amorsolo East",
        "start_date": "1999",
        "@geometry": "center"
      },
      "geometry": {
        "type": "Point",
        "coordinates": [
          121.0356028,
          14.5655319
        ]
      },
      "id": "way/24547950"
    },
    {
      "type": "Feature",
      "properties": {
        "@id": "way/24547958",
        "building": "residential",
        "building:levels": "5",
        "height": "29.5",
        "@geometry": "center"
      },
      "geometry": {
        "type": "Point",
        "coordinates": [
          121.0380469,
          14.5643366
        ]
      },
      "id": "way/24547958"
    },
    {
      "type": "Feature",
      "properties": {
        "@id": "way/25775491",
        "addr:street": "Katipunan Avenue",
        "building": "residential",
        "building:levels": "18",
        "height": "67.6",
        "name": "Prince David",
        "@geometry": "center"
      },
      "geometry": {
        "type": "Point",
        "coordinates": [
          121.0739401,
          14.6378092
        ]
      },
      "id": "way/25775491"
    },
    {
      "type": "Feature",
      "properties": {
        "@id": "way/25775500",
        "addr:street": "Katipunan Avenue",
        "building": "residential",
        "building:levels": "22",
        "height": "82.7",
        "name": "One Burgundy Plaza",
        "@geometry": "center"
      },
      "geometry": {
        "type": "Point",
        "coordinates": [
          121.0739379,
          14.6380422
        ]
      },
      "id": "way/25775500"
    },
    {
      "type": "Feature",
      "properties": {
        "@id": "way/27441567",
        "building": "residential",
        "building:levels": "15",
        "height": "56.4",
        "name": "Valencia Hills Tower A",
        "@geometry": "center"
      },
      "geometry": {
        "type": "Point",
        "coordinates": [
          121.033464,
          14.6104925
        ]
      },
      "id": "way/27441567"
    },
    {
      "type": "Feature",
      "properties": {
        "@id": "way/27441625",
        "building": "residential",
        "building:levels": "15",
        "height": "56.4",
        "name": "Valencia Hills Tower B",
        "@geometry": "center"
      },
      "geometry": {
        "type": "Point",
        "coordinates": [
          121.0338216,
          14.6101602
        ]
      },
      "id": "way/27441625"
    },
    {
      "type": "Feature",
      "properties": {
        "@id": "way/27493294",
        "addr:city": "Quezon City",
        "addr:street": "E-Commerce Avenue",
        "addr:street:corner": "Palm Tree Avenue",
        "building": "residential",
        "building:levels": "6",
        "name": "LeGrand 3",
        "@geometry": "center"
      },
      "geometry": {
        "type": "Point",
        "coordinates": [
          121.0809019,
          14.6078948
        ]
      },
      "id": "way/27493294"
    },
    {
      "type": "Feature",
      "properties": {
        "@id": "way/27663639",
        "addr:city": "Makati",
        "addr:housenumber": "6751",
        "addr:street": "Ayala Avenue",
        "building": "residential",
        "building:levels": "25",
        "height": "95",
        "name": "The Makati Tuscany",
        "note": "height based on wiki",
        "wikipedia": "en:Makati Tuscany",
        "@geometry": "center"
      },
      "geometry": {
        "type": "Point",
        "coordinates": [
          121.0263161,
          14.5538837
        ]
      },
      "id": "way/27663639"
    },
    {
      "type": "Feature",
      "properties": {
        "@id": "way/27671996",
        "addr:city": "Taguig",
        "addr:postcode": "1634",
        "building": "residential",
        "building:colour": "lightgreen",
        "building:levels": "17",
        "height": "65",
        "name": "Mahogany",
        "roof:shape": "hipped",
        "@geometry": "center"
      },
      "geometry": {
        "type": "Point",
        "coordinates": [
          121.0550933,
          14.5511819
        ]
      },
      "id": "way/27671996"
    },
    {
      "type": "Feature",
      "properties": {
        "@id": "way/27672006",
        "addr:city": "Taguig",
        "addr:postcode": "1634",
        "building": "residential",
        "building:colour": "lightgreen",
        "building:levels": "14",
        "height": "53.5",
        "name": "Bamboo",
        "roof:shape": "hipped",
        "@geometry": "center"
      },
      "geometry": {
        "type": "Point",
        "coordinates": [
          121.0548081,
          14.5505603
        ]
      },
      "id": "way/27672006"
    },
    {
      "type": "Feature",
      "properties": {
        "@id": "way/27672285",
        "building": "residential",
        "building:colour": "lightgreen",
        "building:levels": "7",
        "height": "29.9",
        "roof:height": "4.3",
        "roof:shape": "hipped",
        "@geometry": "center"
      },
      "geometry": {
        "type": "Point",
        "coordinates": [
          121.0541724,
          14.5484449
        ]
      },
      "id": "way/27672285"
    },
    {
      "type": "Feature",
      "properties": {
        "@id": "way/28595003",
        "addr:city": "Makati",
        "addr:housenumber": "121",
        "addr:postcode": "1227",
        "addr:street": "H. V. Dela Costa",
        "building": "residential",
        "building:colour": "lightyellow",
        "building:levels": "8",
        "building:material": "concrete",
        "name": "Salcedo Park Twin Towers",
        "@geometry": "center"
      },
      "geometry": {
        "type": "Point",
        "coordinates": [
          121.0244264,
          14.5617059
        ]
      },
      "id": "way/28595003"
    },
    {
      "type": "Feature",
      "properties": {
        "@id": "way/28595439",
        "building": "residential",
        "building:levels": "2",
        "height": "9",
        "name": "Skyland Plaza",
        "@geometry": "center"
      },
      "geometry": {
        "type": "Point",
        "coordinates": [
          121.0133424,
          14.5611158
        ]
      },
      "id": "way/28595439"
    },
    {
      "type": "Feature",
      "properties": {
        "@id": "way/28955054",
        "addr:city": "Makati",
        "addr:housenumber": "130",
        "addr:postcode": "1227",
        "addr:street": "L.P. Leviste",
        "building": "residential",
        "building:levels": "24",
        "name": "LPL Center",
        "@geometry": "center"
      },
      "geometry": {
        "type": "Point",
        "coordinates": [
          121.021752,
          14.5590789
        ]
      },
      "id": "way/28955054"
    },
    {
      "type": "Feature",
      "properties": {
        "@id": "way/29005176",
        "addr:city": "Makati",
        "addr:postcode": "1227",
        "building": "residential",
        "building:levels": "28",
        "height": "104.7",
        "name": "The Manhattan Square",
        "@geometry": "center"
      },
      "geometry": {
        "type": "Point",
        "coordinates": [
          121.0251509,
          14.5595151
        ]
      },
      "id": "way/29005176"
    },
    {
      "type": "Feature",
      "properties": {
        "@id": "way/29018338",
        "addr:city": "Makati",
        "addr:housenumber": "8층",
        "addr:postcode": "1227",
        "addr:street": "Tordesillas",
        "building": "residential",
        "building:levels": "4",
        "name": "Three Salcedo Place",
        "@geometry": "center"
      },
      "geometry": {
        "type": "Point",
        "coordinates": [
          121.0234244,
          14.5608205
        ]
      },
      "id": "way/29018338"
    },
    {
      "type": "Feature",
      "properties": {
        "@id": "way/29086485",
        "addr:city": "Makati",
        "addr:postcode": "1200",
        "building": "residential",
        "building:levels": "23",
        "height": "86",
        "name": "Crown Tower",
        "@geometry": "center"
      },
      "geometry": {
        "type": "Point",
        "coordinates": [
          121.0260955,
          14.5609069
        ]
      },
      "id": "way/29086485"
    },
    {
      "type": "Feature",
      "properties": {
        "@id": "way/29086646",
        "addr:city": "Makati",
        "addr:housenumber": "109",
        "addr:postcode": "1200",
        "addr:street": "H.V. Dela Costa",
        "building": "residential",
        "building:levels": "15",
        "height": "56.1",
        "name": "Parc Regent",
        "@geometry": "center"
      },
      "geometry": {
        "type": "Point",
        "coordinates": [
          121.0258812,
          14.5610302
        ]
      },
      "id": "way/29086646"
    },
    {
      "type": "Feature",
      "properties": {
        "@id": "way/30328209",
        "addr:street": "Shaw Boulevard",
        "building": "residential",
        "building:levels": "3",
        "height": "28",
        "name": "Soho Central Private Residences",
        "@geometry": "center"
      },
      "geometry": {
        "type": "Point",
        "coordinates": [
          121.0553939,
          14.5791923
        ]
      },
      "id": "way/30328209"
    },
    {
      "type": "Feature",
      "properties": {
        "@id": "way/30756147",
        "addr:city": "Mandaluyong",
        "addr:province": "Metro Manila",
        "building": "residential",
        "building:levels": "30",
        "height": "110.9",
        "name": "Gateway Garden Ridge",
        "@geometry": "center"
      },
      "geometry": {
        "type": "Point",
        "coordinates": [
          121.046848,
          14.5693399
        ]
      },
      "id": "way/30756147"
    },
    {
      "type": "Feature",
      "properties": {
        "@id": "way/31054753",
        "addr:city": "Makati",
        "addr:housename": "Grand SOHO Makati",
        "addr:housenumber": "131",
        "addr:postcode": "1200",
        "addr:street": "H.V. Dela Costa St.",
        "building": "residential",
        "building:levels": "7",
        "name": "Grand SOHO Makati",
        "@geometry": "center"
      },
      "geometry": {
        "type": "Point",
        "coordinates": [
          121.0231481,
          14.5617679
        ]
      },
      "id": "way/31054753"
    },
    {
      "type": "Feature",
      "properties": {
        "@id": "way/31091056",
        "building": "residential",
        "building:levels": "4",
        "@geometry": "center"
      },
      "geometry": {
        "type": "Point",
        "coordinates": [
          121.0200583,
          14.5512322
        ]
      },
      "id": "way/31091056"
    },
    {
      "type": "Feature",
      "properties": {
        "@id": "way/32775497",
        "addr:city": "Mandaluyong",
        "addr:province": "Metro Manila",
        "building": "residential",
        "building:levels": "10",
        "height": "37",
        "@geometry": "center"
      },
      "geometry": {
        "type": "Point",
        "coordinates": [
          121.0427791,
          14.5737493
        ]
      },
      "id": "way/32775497"
    },
    {
      "type": "Feature",
      "properties": {
        "@id": "way/32775500",
        "addr:city": "Mandaluyong",
        "addr:province": "Metro Manila",
        "building": "residential",
        "building:levels": "10",
        "height": "37",
        "@geometry": "center"
      },
      "geometry": {
        "type": "Point",
        "coordinates": [
          121.0429778,
          14.5736049
        ]
      },
      "id": "way/32775500"
    },
    {
      "type": "Feature",
      "properties": {
        "@id": "way/32775502",
        "addr:city": "Mandaluyong",
        "addr:province": "Metro Manila",
        "building": "residential",
        "building:levels": "10",
        "height": "37",
        "@geometry": "center"
      },
      "geometry": {
        "type": "Point",
        "coordinates": [
          121.043118,
          14.5737874
        ]
      },
      "id": "way/32775502"
    },
    {
      "type": "Feature",
      "properties": {
        "@id": "way/32775503",
        "addr:city": "Mandaluyong",
        "addr:province": "Metro Manila",
        "building": "residential",
        "building:levels": "10",
        "height": "37",
        "name": "San Francisco Gardens",
        "@geometry": "center"
      },
      "geometry": {
        "type": "Point",
        "coordinates": [
          121.043054,
          14.5742087
        ]
      },
      "id": "way/32775503"
    },
    {
      "type": "Feature",
      "properties": {
        "@id": "way/32836116",
        "building": "residential",
        "building:levels": "42",
        "height": "158",
        "name": "The Exchange Regency",
        "@geometry": "center"
      },
      "geometry": {
        "type": "Point",
        "coordinates": [
          121.0633409,
          14.5832094
        ]
      },
      "id": "way/32836116"
    },
    {
      "type": "Feature",
      "properties": {
        "@id": "way/32836364",
        "addr:city": "Taguig",
        "addr:housenumber": "5th",
        "addr:neighbourhood": "Bonifacio Global City",
        "addr:postcode": "1634",
        "addr:street": "Avenue",
        "addr:street:corner": "23rd Street",
        "building": "residential",
        "building:levels": "6",
        "height": "27.4",
        "name": "The Beaufort",
        "operator": "Filinvest",
        "phone": "+63 917 877 0888;+63 2 8850 0888;+63 2 8588 1688;+63 2 8918 8188",
        "start_date": "2012",
        "website": "http://www.filinvest.com.ph/the-beaufort",
        "@geometry": "center"
      },
      "geometry": {
        "type": "Point",
        "coordinates": [
          121.0453903,
          14.5463298
        ]
      },
      "id": "way/32836364"
    },
    {
      "type": "Feature",
      "properties": {
        "@id": "way/32946212",
        "addr:city": "Makati",
        "addr:postcode": "1227",
        "addr:street": "Tordesillas",
        "building": "residential",
        "building:levels": "9",
        "name": "Mareic Building",
        "@geometry": "center"
      },
      "geometry": {
        "type": "Point",
        "coordinates": [
          121.0229681,
          14.5607637
        ]
      },
      "id": "way/32946212"
    },
    {
      "type": "Feature",
      "properties": {
        "@id": "way/32947939",
        "addr:city": "Makati",
        "addr:housenumber": "138",
        "addr:street": "Valero",
        "building": "residential",
        "building:levels": "14",
        "height": "52.4",
        "name": "Cordova",
        "@geometry": "center"
      },
      "geometry": {
        "type": "Point",
        "coordinates": [
          121.0221323,
          14.5586227
        ]
      },
      "id": "way/32947939"
    },
    {
      "type": "Feature",
      "properties": {
        "@id": "way/32947981",
        "addr:city": "Makati",
        "addr:housenumber": "134",
        "addr:street": "Valero",
        "building": "residential",
        "building:levels": "16",
        "height": "59.8",
        "name": "Cosmopolitan Tower",
        "@geometry": "center"
      },
      "geometry": {
        "type": "Point",
        "coordinates": [
          121.0216247,
          14.5584986
        ]
      },
      "id": "way/32947981"
    },
    {
      "type": "Feature",
      "properties": {
        "@id": "way/32947982",
        "addr:city": "Makati",
        "addr:postcode": "1227",
        "addr:street": "San Agustin Street",
        "building": "residential",
        "building:levels": "5",
        "name": "The Stratosphere",
        "@geometry": "center"
      },
      "geometry": {
        "type": "Point",
        "coordinates": [
          121.0218771,
          14.5585704
        ]
      },
      "id": "way/32947982"
    },
    {
      "type": "Feature",
      "properties": {
        "@id": "way/32948076",
        "addr:city": "Makati",
        "addr:housenumber": "132",
        "addr:postcode": "1227",
        "addr:street": "L.P. Leviste",
        "building": "residential",
        "building:levels": "30",
        "height": "100",
        "name": "One Lafayette Square",
        "@geometry": "center"
      },
      "geometry": {
        "type": "Point",
        "coordinates": [
          121.0220202,
          14.5591054
        ]
      },
      "id": "way/32948076"
    },
    {
      "type": "Feature",
      "properties": {
        "@id": "way/32948150",
        "addr:city": "Makati",
        "addr:postcode": "1227",
        "addr:street": "San Agustin",
        "building": "residential",
        "building:levels": "6",
        "name": "Escala Salcedo",
        "operator": "Alveo Land",
        "@geometry": "center"
      },
      "geometry": {
        "type": "Point",
        "coordinates": [
          121.0234123,
          14.5594649
        ]
      },
      "id": "way/32948150"
    },
    {
      "type": "Feature",
      "properties": {
        "@id": "way/32976359",
        "addr:city": "Muntinlupa",
        "addr:street": "East Asia Drive",
        "building": "residential",
        "building:levels": "22",
        "height": "83.3",
        "name": "Mondrian Residences",
        "@geometry": "center"
      },
      "geometry": {
        "type": "Point",
        "coordinates": [
          121.0352911,
          14.4191028
        ]
      },
      "id": "way/32976359"
    },
    {
      "type": "Feature",
      "properties": {
        "@id": "way/34236366",
        "addr:city": "Makati",
        "addr:postcode": "1227",
        "building": "residential",
        "building:levels": "21",
        "height": "78.5",
        "name": "Splendido Gardens",
        "@geometry": "center"
      },
      "geometry": {
        "type": "Point",
        "coordinates": [
          121.0193646,
          14.5608268
        ]
      },
      "id": "way/34236366"
    },
    {
      "type": "Feature",
      "properties": {
        "@id": "way/34236382",
        "addr:city": "Makati",
        "addr:postcode": "1227",
        "building": "residential",
        "building:levels": "26",
        "height": "74.8",
        "name": "Citiland Condominium 10 Tower 2",
        "@geometry": "center"
      },
      "geometry": {
        "type": "Point",
        "coordinates": [
          121.0174311,
          14.560605
        ]
      },
      "id": "way/34236382"
    },
    {
      "type": "Feature",
      "properties": {
        "@id": "way/34236428",
        "addr:city": "Makati",
        "addr:postcode": "1227",
        "building": "residential",
        "building:levels": "26",
        "height": "74.8",
        "name": "Citiland Condominium 10 Tower 1",
        "@geometry": "center"
      },
      "geometry": {
        "type": "Point",
        "coordinates": [
          121.0171375,
          14.5604474
        ]
      },
      "id": "way/34236428"
    },
    {
      "type": "Feature",
      "properties": {
        "@id": "way/35064595",
        "addr:city": "Makati",
        "addr:postcode": "1227",
        "addr:street": "San Agustin Street",
        "building": "residential",
        "building:levels": "35",
        "height": "133.5",
        "name": "Somerset Dowell Tower Residences",
        "@geometry": "center"
      },
      "geometry": {
        "type": "Point",
        "coordinates": [
          121.0249208,
          14.5594514
        ]
      },
      "id": "way/35064595"
    },
    {
      "type": "Feature",
      "properties": {
        "@id": "way/35064600",
        "addr:city": "Makati",
        "addr:housenumber": "121",
        "addr:postcode": "1227",
        "addr:street": "L.P. Leviste",
        "building": "residential",
        "building:levels": "9",
        "height": "33.7",
        "name": "Adamson Centre",
        "@geometry": "center"
      },
      "geometry": {
        "type": "Point",
        "coordinates": [
          121.0245018,
          14.5601828
        ]
      },
      "id": "way/35064600"
    },
    {
      "type": "Feature",
      "properties": {
        "@id": "way/35116733",
        "addr:city": "Makati",
        "addr:housenumber": "156",
        "addr:postcode": "1227",
        "addr:street": "L. P. Leviste Street",
        "building": "residential",
        "building:levels": "31",
        "height": "115.9",
        "name": "Tiffany Place",
        "@geometry": "center"
      },
      "geometry": {
        "type": "Point",
        "coordinates": [
          121.0249774,
          14.5598794
        ]
      },
      "id": "way/35116733"
    },
    {
      "type": "Feature",
      "properties": {
        "@id": "way/35125808",
        "addr:city": "Makati",
        "addr:housenumber": "119",
        "addr:postcode": "1227",
        "addr:street": "L.P. Leviste",
        "building": "residential",
        "building:levels": "9",
        "height": "33.7",
        "name": "The Picasso",
        "official_name": "The Picasso Boutique Serviced Residences",
        "website": "https://www.picassomakati.com/",
        "@geometry": "center"
      },
      "geometry": {
        "type": "Point",
        "coordinates": [
          121.0241637,
          14.5600773
        ]
      },
      "id": "way/35125808"
    },
    {
      "type": "Feature",
      "properties": {
        "@id": "way/35125809",
        "addr:city": "Makati",
        "addr:postcode": "1227",
        "addr:street": "L.P. Leviste",
        "addr:street:corner": "Toledo",
        "building": "residential",
        "building:levels": "10",
        "height": "37.4",
        "name": "L'Ermitage Apartments",
        "@geometry": "center"
      },
      "geometry": {
        "type": "Point",
        "coordinates": [
          121.023792,
          14.5600106
        ]
      },
      "id": "way/35125809"
    },
    {
      "type": "Feature",
      "properties": {
        "@id": "way/35344930",
        "addr:city": "Makati",
        "addr:housenumber": "150",
        "addr:postcode": "1227",
        "addr:street": "L.P. Leviste",
        "building": "residential",
        "building:levels": "26",
        "height": "97.2",
        "name": "Grand Tower",
        "@geometry": "center"
      },
      "geometry": {
        "type": "Point",
        "coordinates": [
          121.0241639,
          14.5596593
        ]
      },
      "id": "way/35344930"
    },
    {
      "type": "Feature",
      "properties": {
        "@id": "way/35396478",
        "addr:city": "Makati",
        "addr:postcode": "1227",
        "addr:street": "V. A. Rufino",
        "addr:street:corner": "Valero",
        "building": "residential",
        "building:levels": "25",
        "height": "93.5",
        "name": "Citiland Herrera Tower",
        "@geometry": "center"
      },
      "geometry": {
        "type": "Point",
        "coordinates": [
          121.0195421,
          14.5589716
        ]
      },
      "id": "way/35396478"
    },
    {
      "type": "Feature",
      "properties": {
        "@id": "way/35423083",
        "addr:city": "Makati",
        "addr:housename": "Antel Platinum Tower",
        "addr:housenumber": "154",
        "addr:postcode": "1227",
        "addr:street": "Valero",
        "building": "residential",
        "building:levels": "26",
        "height": "97.2",
        "name": "Antel Platinum Tower",
        "@geometry": "center"
      },
      "geometry": {
        "type": "Point",
        "coordinates": [
          121.024059,
          14.5592205
        ]
      },
      "id": "way/35423083"
    },
    {
      "type": "Feature",
      "properties": {
        "@id": "way/35569377",
        "addr:city": "Makati",
        "addr:housename": "The Columns Legazpi Village",
        "addr:postcode": "1229",
        "addr:street": "Amorsolo St., corner Arnaiz Avenue",
        "building": "residential",
        "name": "The Columns Legazpi Village",
        "@geometry": "center"
      },
      "geometry": {
        "type": "Point",
        "coordinates": [
          121.0158312,
          14.5516303
        ]
      },
      "id": "way/35569377"
    },
    {
      "type": "Feature",
      "properties": {
        "@id": "way/35798765",
        "addr:city": "Parañaque",
        "addr:street": "Roxas Boulevard",
        "building": "residential",
        "building:levels": "21",
        "height": "77.2",
        "name": "Chateau de Baie",
        "@geometry": "center"
      },
      "geometry": {
        "type": "Point",
        "coordinates": [
          120.9940585,
          14.5275858
        ]
      },
      "id": "way/35798765"
    },
    {
      "type": "Feature",
      "properties": {
        "@id": "way/35799030",
        "addr:city": "Makati",
        "addr:postcode": "1227",
        "building": "residential",
        "building:levels": "26",
        "height": "97.2",
        "name": "Island Plaza",
        "@geometry": "center"
      },
      "geometry": {
        "type": "Point",
        "coordinates": [
          121.0199803,
          14.5603247
        ]
      },
      "id": "way/35799030"
    },
    {
      "type": "Feature",
      "properties": {
        "@id": "way/35799044",
        "addr:city": "Makati",
        "addr:street": "Gil Puyat Avenue corner Tordesillas and H. V. Dela Costa Streets",
        "building": "residential",
        "building:levels": "6",
        "name": "Shang Salcedo Place",
        "old_name": "ACS Plaza",
        "@geometry": "center"
      },
      "geometry": {
        "type": "Point",
        "coordinates": [
          121.0204131,
          14.5615296
        ]
      },
      "id": "way/35799044"
    },
    {
      "type": "Feature",
      "properties": {
        "@id": "way/35799045",
        "addr:city": "Makati",
        "addr:housenumber": "332",
        "addr:postcode": "1200",
        "addr:street": "Senator Gil Puyat Avenue",
        "building": "residential",
        "building:levels": "6",
        "name": "Elizabeth Place",
        "@geometry": "center"
      },
      "geometry": {
        "type": "Point",
        "coordinates": [
          121.020819,
          14.5615551
        ]
      },
      "id": "way/35799045"
    },
    {
      "type": "Feature",
      "properties": {
        "@id": "way/35893537",
        "addr:city": "Makati",
        "addr:street": "Dela Rosa",
        "building": "residential",
        "building:levels": "5",
        "height": "18",
        "name": "Kroma Tower",
        "operator": "Alveo Land",
        "@geometry": "center"
      },
      "geometry": {
        "type": "Point",
        "coordinates": [
          121.0166245,
          14.5586176
        ]
      },
      "id": "way/35893537"
    },
    {
      "type": "Feature",
      "properties": {
        "@id": "way/35894616",
        "building": "residential",
        "building:levels": "27",
        "height": "102",
        "name": "Citrine Residences",
        "@geometry": "center"
      },
      "geometry": {
        "type": "Point",
        "coordinates": [
          121.0191026,
          14.5598369
        ]
      },
      "id": "way/35894616"
    },
    {
      "type": "Feature",
      "properties": {
        "@id": "way/35909194",
        "addr:city": "Makati",
        "addr:housenumber": "118",
        "addr:postcode": "1227",
        "addr:street": "Valero",
        "building": "residential",
        "building:levels": "30",
        "height": "112.2",
        "name": "Easton Place",
        "@geometry": "center"
      },
      "geometry": {
        "type": "Point",
        "coordinates": [
          121.0198745,
          14.559381
        ]
      },
      "id": "way/35909194"
    },
    {
      "type": "Feature",
      "properties": {
        "@id": "way/35909195",
        "addr:city": "Makati",
        "addr:housenumber": "120",
        "addr:street": "Valero",
        "building": "residential",
        "building:levels": "22",
        "height": "82.3",
        "name": "Ponte Salcedo",
        "@geometry": "center"
      },
      "geometry": {
        "type": "Point",
        "coordinates": [
          121.0200564,
          14.5592439
        ]
      },
      "id": "way/35909195"
    },
    {
      "type": "Feature",
      "properties": {
        "@id": "way/35912249",
        "addr:city": "Makati",
        "addr:postcode": "1200",
        "addr:street": "Senator Gil Puyat Avenue",
        "addr:street:corner": "Tordesillas",
        "building": "residential",
        "building:levels": "3",
        "height": "12",
        "name": "Le Metropole",
        "start_date": "1991",
        "@geometry": "center"
      },
      "geometry": {
        "type": "Point",
        "coordinates": [
          121.019801,
          14.5614795
        ]
      },
      "id": "way/35912249"
    },
    {
      "type": "Feature",
      "properties": {
        "@id": "way/35912254",
        "addr:city": "Makati",
        "addr:postcode": "1227",
        "addr:street": "L.P. Leviste",
        "building": "residential",
        "building:levels": "9",
        "height": "33.7",
        "name": "Y Tower II",
        "@geometry": "center"
      },
      "geometry": {
        "type": "Point",
        "coordinates": [
          121.0203585,
          14.560048
        ]
      },
      "id": "way/35912254"
    },
    {
      "type": "Feature",
      "properties": {
        "@id": "way/35914403",
        "addr:city": "Makati",
        "addr:housenumber": "124",
        "addr:postcode": "1227",
        "addr:street": "H.V. Dela Costa",
        "building": "residential",
        "building:levels": "5",
        "name": "Alpha Salcedo",
        "@geometry": "center"
      },
      "geometry": {
        "type": "Point",
        "coordinates": [
          121.0227083,
          14.5611843
        ]
      },
      "id": "way/35914403"
    },
    {
      "type": "Feature",
      "properties": {
        "@id": "way/35914404",
        "addr:city": "Makati",
        "addr:housenumber": "127",
        "addr:postcode": "1227",
        "addr:street": "H.V. Dela Costa",
        "building": "residential",
        "building:levels": "6",
        "name": "Somerset",
        "start_date": "2021",
        "@geometry": "center"
      },
      "geometry": {
        "type": "Point",
        "coordinates": [
          121.0224787,
          14.5611546
        ]
      },
      "id": "way/35914404"
    },
    {
      "type": "Feature",
      "properties": {
        "@id": "way/35914410",
        "addr:city": "Makati",
        "addr:housenumber": "105",
        "addr:postcode": "1227",
        "addr:street": "Tordesillas",
        "building": "residential",
        "building:levels": "5",
        "name": "Two Lafayette Square",
        "@geometry": "center"
      },
      "geometry": {
        "type": "Point",
        "coordinates": [
          121.0212299,
          14.5605992
        ]
      },
      "id": "way/35914410"
    },
    {
      "type": "Feature",
      "properties": {
        "@id": "way/35914413",
        "addr:city": "Makati",
        "addr:housenumber": "14",
        "addr:postcode": "1227",
        "addr:street": "Tordesillas",
        "building": "residential",
        "building:levels": "14",
        "height": "52.4",
        "name": "Prince Tower",
        "@geometry": "center"
      },
      "geometry": {
        "type": "Point",
        "coordinates": [
          121.0209249,
          14.5606084
        ]
      },
      "id": "way/35914413"
    },
    {
      "type": "Feature",
      "properties": {
        "@id": "way/35915680",
        "addr:city": "Makati",
        "addr:housenumber": "122",
        "addr:postcode": "1227",
        "addr:street": "L.P. Leviste",
        "building": "residential",
        "building:levels": "12",
        "height": "44.9",
        "name": "LPL Mansion",
        "@geometry": "center"
      },
      "geometry": {
        "type": "Point",
        "coordinates": [
          121.0208645,
          14.5592264
        ]
      },
      "id": "way/35915680"
    },
    {
      "type": "Feature",
      "properties": {
        "@id": "way/35915681",
        "addr:city": "Makati",
        "addr:housenumber": "124",
        "addr:postcode": "1227",
        "addr:street": "L.P. Leviste",
        "building": "residential",
        "building:levels": "15",
        "height": "56.1",
        "name": "LPL Plaza",
        "@geometry": "center"
      },
      "geometry": {
        "type": "Point",
        "coordinates": [
          121.0210656,
          14.5591482
        ]
      },
      "id": "way/35915681"
    },
    {
      "type": "Feature",
      "properties": {
        "@id": "way/35938030",
        "addr:city": "Makati",
        "addr:postcode": "1227",
        "addr:street": "H. V. Dela Costa",
        "building": "residential",
        "building:levels": "8",
        "name": "Salcedo SkySuites",
        "operator": "Megaworld",
        "@geometry": "center"
      },
      "geometry": {
        "type": "Point",
        "coordinates": [
          121.0234175,
          14.5617971
        ]
      },
      "id": "way/35938030"
    },
    {
      "type": "Feature",
      "properties": {
        "@id": "way/35982644",
        "addr:city": "Makati",
        "addr:postcode": "1229",
        "addr:street": "Dela Rosa",
        "addr:street:corner": "Perea",
        "building": "residential",
        "building:levels": "46",
        "height": "180",
        "name": "The Shang Grand Tower",
        "wikidata": "Q2436539",
        "wikimedia_commons": "Category:The Shang Grand Tower",
        "wikipedia": "en:The Shang Grand Tower",
        "@geometry": "center"
      },
      "geometry": {
        "type": "Point",
        "coordinates": [
          121.0214323,
          14.5547412
        ]
      },
      "id": "way/35982644"
    },
    {
      "type": "Feature",
      "properties": {
        "@id": "way/35982674",
        "addr:city": "Makati",
        "addr:postcode": "1229",
        "addr:street": "Legazpi",
        "building": "residential",
        "building:levels": "39",
        "height": "145.9",
        "name": "The Eton Residences",
        "@geometry": "center"
      },
      "geometry": {
        "type": "Point",
        "coordinates": [
          121.0203064,
          14.5539757
        ]
      },
      "id": "way/35982674"
    },
    {
      "type": "Feature",
      "properties": {
        "@id": "way/35992833",
        "addr:city": "Makati",
        "addr:housenumber": "132",
        "addr:postcode": "1200",
        "addr:street": "Legaspi",
        "addr:street:corner": "C. Palanca",
        "building": "residential",
        "building:levels": "10",
        "height": "37.4",
        "name": "The Colonnade Residences",
        "@geometry": "center"
      },
      "geometry": {
        "type": "Point",
        "coordinates": [
          121.0187174,
          14.5544205
        ]
      },
      "id": "way/35992833"
    },
    {
      "type": "Feature",
      "properties": {
        "@id": "way/35992834",
        "addr:city": "Makati",
        "addr:postcode": "1200",
        "addr:street": "Carlos Palanca",
        "building": "residential",
        "building:levels": "39",
        "height": "145.2",
        "name": "Greenbelt Parkplace",
        "@geometry": "center"
      },
      "geometry": {
        "type": "Point",
        "coordinates": [
          121.0189764,
          14.5547742
        ]
      },
      "id": "way/35992834"
    },
    {
      "type": "Feature",
      "properties": {
        "@id": "way/35992836",
        "addr:city": "Makati",
        "addr:housenumber": "110",
        "addr:postcode": "1200",
        "addr:street": "Carlos Palanca",
        "building": "residential",
        "name": "Doña Angela's Garden",
        "@geometry": "center"
      },
      "geometry": {
        "type": "Point",
        "coordinates": [
          121.0191421,
          14.5550624
        ]
      },
      "id": "way/35992836"
    },
    {
      "type": "Feature",
      "properties": {
        "@id": "way/35992838",
        "addr:city": "Makati",
        "addr:housenumber": "103",
        "addr:postcode": "1200",
        "addr:street": "Carlos Palanca",
        "building": "residential",
        "building:levels": "8",
        "height": "30",
        "name": "BSA Suites",
        "@geometry": "center"
      },
      "geometry": {
        "type": "Point",
        "coordinates": [
          121.0192213,
          14.5559777
        ]
      },
      "id": "way/35992838"
    },
    {
      "type": "Feature",
      "properties": {
        "@id": "way/35992848",
        "addr:city": "Makati",
        "addr:housenumber": "134",
        "addr:street": "Legazpi Street",
        "building": "residential",
        "building:levels": "10",
        "height": "37.4",
        "name": "Legaspi Parkview",
        "@geometry": "center"
      },
      "geometry": {
        "type": "Point",
        "coordinates": [
          121.0181602,
          14.5544431
        ]
      },
      "id": "way/35992848"
    },
    {
      "type": "Feature",
      "properties": {
        "@id": "way/36521630",
        "addr:city": "Makati",
        "addr:housenumber": "113",
        "addr:postcode": "1200",
        "addr:street": "Rada Street",
        "building": "residential",
        "building:levels": "11",
        "height": "41.1",
        "name": "La Maison Rada",
        "start_date": "1992",
        "@geometry": "center"
      },
      "geometry": {
        "type": "Point",
        "coordinates": [
          121.017844,
          14.5556062
        ]
      },
      "id": "way/36521630"
    },
    {
      "type": "Feature",
      "properties": {
        "@id": "way/36524224",
        "addr:city": "Makati",
        "addr:housenumber": "112",
        "addr:street": "Rada Street",
        "building": "residential",
        "building:levels": "6",
        "height": "20",
        "name": "Greenbelt Chancellor",
        "start_date": "2011",
        "@geometry": "center"
      },
      "geometry": {
        "type": "Point",
        "coordinates": [
          121.0182055,
          14.5552579
        ]
      },
      "id": "way/36524224"
    },
    {
      "type": "Feature",
      "properties": {
        "@id": "way/36524246",
        "addr:city": "Makati",
        "addr:postcode": "1229",
        "addr:street": "Rada Street",
        "addr:street:corner": "Dela Rosa Street",
        "building": "residential",
        "building:levels": "25",
        "height": "93.5",
        "name": "Rada Regency",
        "@geometry": "center"
      },
      "geometry": {
        "type": "Point",
        "coordinates": [
          121.0189808,
          14.5564108
        ]
      },
      "id": "way/36524246"
    },
    {
      "type": "Feature",
      "properties": {
        "@id": "way/36702554",
        "addr:city": "Makati",
        "addr:housenumber": "117",
        "addr:postcode": "1229",
        "addr:street": "Gamboa",
        "building": "residential",
        "building:levels": "20",
        "name": "KL Tower",
        "official_name": "KL Tower Serviced Residences",
        "@geometry": "center"
      },
      "geometry": {
        "type": "Point",
        "coordinates": [
          121.0168641,
          14.5533783
        ]
      },
      "id": "way/36702554"
    },
    {
      "type": "Feature",
      "properties": {
        "@id": "way/36705060",
        "addr:city": "Makati",
        "addr:housenumber": "115",
        "addr:postcode": "1229",
        "addr:street": "Trasierra",
        "addr:street:corner": "Aguirre",
        "building": "residential",
        "name": "Mosaic Tower",
        "@geometry": "center"
      },
      "geometry": {
        "type": "Point",
        "coordinates": [
          121.0181781,
          14.5526805
        ]
      },
      "id": "way/36705060"
    },
    {
      "type": "Feature",
      "properties": {
        "@id": "way/36705061",
        "addr:city": "Makati",
        "addr:housenumber": "102",
        "addr:postcode": "1229",
        "addr:street": "Aguirre",
        "building": "residential",
        "name": "The Biltmore",
        "@geometry": "center"
      },
      "geometry": {
        "type": "Point",
        "coordinates": [
          121.0179744,
          14.5527139
        ]
      },
      "id": "way/36705061"
    },
    {
      "type": "Feature",
      "properties": {
        "@id": "way/36705062",
        "addr:city": "Makati",
        "addr:housenumber": "104",
        "addr:postcode": "1229",
        "addr:street": "Aguirre",
        "building": "residential",
        "name": "Somerset Millenium",
        "@geometry": "center"
      },
      "geometry": {
        "type": "Point",
        "coordinates": [
          121.017767,
          14.5527454
        ]
      },
      "id": "way/36705062"
    },
    {
      "type": "Feature",
      "properties": {
        "@id": "way/36776399",
        "addr:city": "Makati",
        "addr:housenumber": "1502",
        "addr:postcode": "1200",
        "addr:street": "Dela Rosa",
        "building": "residential",
        "building:levels": "7",
        "height": "26",
        "name": "Medical Plaza",
        "@geometry": "center"
      },
      "geometry": {
        "type": "Point",
        "coordinates": [
          121.0143561,
          14.5583346
        ]
      },
      "id": "way/36776399"
    },
    {
      "type": "Feature",
      "properties": {
        "@id": "way/36782193",
        "addr:city": "Makati",
        "addr:housenumber": "176",
        "addr:postcode": "1200",
        "addr:street": "Salcedo",
        "building": "residential",
        "building:levels": "31",
        "height": "105",
        "name": "Greenbelt Madison",
        "@geometry": "center"
      },
      "geometry": {
        "type": "Point",
        "coordinates": [
          121.0155759,
          14.557153
        ]
      },
      "id": "way/36782193"
    },
    {
      "type": "Feature",
      "properties": {
        "@id": "way/36782194",
        "addr:city": "Makati",
        "addr:postcode": "1200",
        "addr:street": "Salcedo",
        "building": "residential",
        "building:levels": "12",
        "height": "44.9",
        "name": "Legaspi Suites",
        "@geometry": "center"
      },
      "geometry": {
        "type": "Point",
        "coordinates": [
          121.0156223,
          14.5569718
        ]
      },
      "id": "way/36782194"
    },
    {
      "type": "Feature",
      "properties": {
        "@id": "way/36782815",
        "addr:city": "Makati",
        "addr:postcode": "1229",
        "addr:street": "Legazpi Street",
        "building": "residential",
        "building:levels": "5",
        "height": "18",
        "name": "MAN Tower",
        "old_name": "Miriam House",
        "@geometry": "center"
      },
      "geometry": {
        "type": "Point",
        "coordinates": [
          121.0160946,
          14.5566094
        ]
      },
      "id": "way/36782815"
    },
    {
      "type": "Feature",
      "properties": {
        "@id": "way/36782817",
        "addr:city": "Makati",
        "addr:postcode": "1229",
        "addr:street": "Legazpi Street",
        "building": "residential",
        "building:levels": "5",
        "height": "18.1",
        "name": "Greenbelt Hamilton",
        "operator": "Megaworld",
        "@geometry": "center"
      },
      "geometry": {
        "type": "Point",
        "coordinates": [
          121.0161462,
          14.5561714
        ]
      },
      "id": "way/36782817"
    },
    {
      "type": "Feature",
      "properties": {
        "@id": "way/36969697",
        "addr:city": "Makati",
        "addr:postcode": "1231",
        "addr:street": "Don Chino Roces Avenue",
        "building": "residential",
        "building:levels": "6",
        "height": "29.9",
        "name": "Oriental Place Condo",
        "operator": "Horizon Land",
        "@geometry": "center"
      },
      "geometry": {
        "type": "Point",
        "coordinates": [
          121.0133393,
          14.5547021
        ]
      },
      "id": "way/36969697"
    },
    {
      "type": "Feature",
      "properties": {
        "@id": "way/36969700",
        "addr:city": "Makati",
        "addr:postcode": "1231",
        "addr:street": "Don Chino Roces Avenue",
        "building": "residential",
        "building:levels": "8",
        "height": "31",
        "name": "Herald Suites",
        "@geometry": "center"
      },
      "geometry": {
        "type": "Point",
        "coordinates": [
          121.0135609,
          14.5537504
        ]
      },
      "id": "way/36969700"
    },
    {
      "type": "Feature",
      "properties": {
        "@id": "way/36982143",
        "addr:city": "Makati",
        "building": "residential",
        "building:levels": "8",
        "height": "27",
        "name": "Victoria de Makati",
        "@geometry": "center"
      },
      "geometry": {
        "type": "Point",
        "coordinates": [
          121.0105253,
          14.5580852
        ]
      },
      "id": "way/36982143"
    },
    {
      "type": "Feature",
      "properties": {
        "@id": "way/36982145",
        "addr:city": "Makati",
        "addr:housenumber": "841",
        "addr:postcode": "1230",
        "addr:street": "Dela Rosa",
        "building": "residential",
        "building:levels": "15",
        "height": "56.1",
        "name": "Citiland Dela Rosa Condominium",
        "@geometry": "center"
      },
      "geometry": {
        "type": "Point",
        "coordinates": [
          121.0096326,
          14.5577941
        ]
      },
      "id": "way/36982145"
    },
    {
      "type": "Feature",
      "properties": {
        "@id": "way/36982147",
        "addr:city": "Makati",
        "addr:housenumber": "98",
        "addr:street": "Senator Gil Puyat Avenue",
        "building": "residential",
        "building:levels": "13",
        "height": "48.6",
        "name": "Citiland VIII",
        "@geometry": "center"
      },
      "geometry": {
        "type": "Point",
        "coordinates": [
          121.0090335,
          14.558101
        ]
      },
      "id": "way/36982147"
    },
    {
      "type": "Feature",
      "properties": {
        "@id": "way/36987506",
        "addr:city": "Makati",
        "addr:street": "Ayala Avenue",
        "building": "residential",
        "building:levels": "52",
        "height": "150",
        "name": "Pacific Plaza Condominium",
        "wikidata": "Q2405653",
        "wikipedia": "nl:Pacific Plaza Condominiums",
        "@geometry": "center"
      },
      "geometry": {
        "type": "Point",
        "coordinates": [
          121.0281274,
          14.552332
        ]
      },
      "id": "way/36987506"
    },
    {
      "type": "Feature",
      "properties": {
        "@id": "way/36992593",
        "addr:city": "Makati",
        "addr:postcode": "1230",
        "addr:street": "Dela Rosa",
        "building": "residential",
        "building:colour": "orange",
        "building:levels": "5",
        "building:material": "cement_block",
        "height": "22.4",
        "name": "Makati Executive Tower I",
        "@geometry": "center"
      },
      "geometry": {
        "type": "Point",
        "coordinates": [
          121.0088815,
          14.5574822
        ]
      },
      "id": "way/36992593"
    },
    {
      "type": "Feature",
      "properties": {
        "@id": "way/36992594",
        "addr:city": "Makati",
        "addr:postcode": "1230",
        "addr:street": "Dela Rosa",
        "building": "residential",
        "building:levels": "35",
        "height": "130.9",
        "name": "Makati Executive Tower II",
        "@geometry": "center"
      },
      "geometry": {
        "type": "Point",
        "coordinates": [
          121.0085662,
          14.5573129
        ]
      },
      "id": "way/36992594"
    },
    {
      "type": "Feature",
      "properties": {
        "@id": "way/36992595",
        "addr:city": "Makati",
        "addr:postcode": "1230",
        "addr:street": "Dela Rosa",
        "building": "residential",
        "building:levels": "38",
        "height": "142.1",
        "name": "Makati Executive Tower III",
        "@geometry": "center"
      },
      "geometry": {
        "type": "Point",
        "coordinates": [
          121.0086918,
          14.5578723
        ]
      },
      "id": "way/36992595"
    },
    {
      "type": "Feature",
      "properties": {
        "@id": "way/36993529",
        "addr2:street": "Malugay Street",
        "addr:city": "Makati",
        "addr:housenumber": "215",
        "addr:postcode": "1200",
        "addr:street": "Senator Gil Puyat Avenue",
        "building": "residential",
        "building:levels": "6",
        "height": "27",
        "mapillary": "595689501795070",
        "name": "San Antonio Residence",
        "old_name": "LPL",
        "@geometry": "center"
      },
      "geometry": {
        "type": "Point",
        "coordinates": [
          121.009642,
          14.5592768
        ]
      },
      "id": "way/36993529"
    },
    {
      "type": "Feature",
      "properties": {
        "@id": "way/37075972",
        "building": "residential",
        "building:levels": "43",
        "height": "149",
        "name": "One McKinley Place",
        "start_date": "2003",
        "@geometry": "center"
      },
      "geometry": {
        "type": "Point",
        "coordinates": [
          121.0454069,
          14.5491273
        ]
      },
      "id": "way/37075972"
    },
    {
      "type": "Feature",
      "properties": {
        "@id": "way/37231683",
        "addr:postcode": "1634",
        "addr:street": "Rizal Drive",
        "building": "residential",
        "name": "The Rise Hotel",
        "name:en": "The Rise Hotel",
        "tourism": "hotel",
        "@geometry": "center"
      },
      "geometry": {
        "type": "Point",
        "coordinates": [
          121.045727,
          14.54755
        ]
      },
      "id": "way/37231683"
    },
    {
      "type": "Feature",
      "properties": {
        "@id": "way/37613753",
        "addr:city": "Makati",
        "addr:postcode": "1231",
        "addr:street": "Don Chino Roces Avenue",
        "building": "residential",
        "building:colour": "blue",
        "building:levels": "9",
        "height": "40.6",
        "name": "Citiland Pasong Tamo Tower",
        "@geometry": "center"
      },
      "geometry": {
        "type": "Point",
        "coordinates": [
          121.0132734,
          14.5497593
        ]
      },
      "id": "way/37613753"
    },
    {
      "type": "Feature",
      "properties": {
        "@id": "way/37613754",
        "addr:city": "Makati",
        "addr:housenumber": "6264 Cityland",
        "addr:postcode": "1230",
        "addr:street": "Calle Estacion",
        "building": "residential",
        "building:levels": "15",
        "height": "56.1",
        "name": "Cityland Pasong Tamo Building 2",
        "name:en": "Cityland Pasong Tamo Building 2",
        "@geometry": "center"
      },
      "geometry": {
        "type": "Point",
        "coordinates": [
          121.0128093,
          14.5495817
        ]
      },
      "id": "way/37613754"
    },
    {
      "type": "Feature",
      "properties": {
        "@id": "way/37869348",
        "addr:city": "Manila",
        "addr:province": "Metro Manila",
        "addr:street": "Carlos Palanca Street",
        "building": "residential",
        "building:levels": "3",
        "name": "Don Juan Santos",
        "source": "Yahoo",
        "@geometry": "center"
      },
      "geometry": {
        "type": "Point",
        "coordinates": [
          120.9837197,
          14.596095
        ]
      },
      "id": "way/37869348"
    },
    {
      "type": "Feature",
      "properties": {
        "@id": "way/38744102",
        "addr:city": "Manila",
        "addr:province": "Metro Manila",
        "building": "residential",
        "building:levels": "5",
        "name": "Malate Bayview Mansion",
        "@geometry": "center"
      },
      "geometry": {
        "type": "Point",
        "coordinates": [
          120.9855332,
          14.5705133
        ]
      },
      "id": "way/38744102"
    },
    {
      "type": "Feature",
      "properties": {
        "@id": "way/38744402",
        "addr:city": "Manila",
        "addr:postcode": "1004",
        "addr:street": "Remedios Street",
        "alt_name": "Royal Plaza Twin Towers",
        "building": "residential",
        "building:levels": "8",
        "name": "Royal Plaza",
        "@geometry": "center"
      },
      "geometry": {
        "type": "Point",
        "coordinates": [
          120.9879617,
          14.5708966
        ]
      },
      "id": "way/38744402"
    },
    {
      "type": "Feature",
      "properties": {
        "@id": "way/41182686",
        "building": "residential",
        "building:levels": "1",
        "height": "4",
        "name": "South Star Plaza Condominium",
        "@geometry": "center"
      },
      "geometry": {
        "type": "Point",
        "coordinates": [
          121.0137214,
          14.5454542
        ]
      },
      "id": "way/41182686"
    },
    {
      "type": "Feature",
      "properties": {
        "@id": "way/46649007",
        "addr:housenumber": "291",
        "addr:street": "P. Tuazon Boulevard",
        "building": "residential",
        "building:levels": "12",
        "height": "45.1",
        "name": "Prince John Condominium",
        "@geometry": "center"
      },
      "geometry": {
        "type": "Point",
        "coordinates": [
          121.0613936,
          14.620891
        ]
      },
      "id": "way/46649007"
    },
    {
      "type": "Feature",
      "properties": {
        "@id": "way/48958657",
        "building": "residential",
        "building:levels": "21",
        "height": "78.9",
        "name": "Gilmore Heights",
        "@geometry": "center"
      },
      "geometry": {
        "type": "Point",
        "coordinates": [
          121.0357449,
          14.611199
        ]
      },
      "id": "way/48958657"
    },
    {
      "type": "Feature",
      "properties": {
        "@id": "way/53198955",
        "addr:city": "Quezon City",
        "addr:postcode": "1104",
        "addr:street": "EDSA",
        "building": "residential",
        "building:levels": "25",
        "height": "101.6",
        "@geometry": "center"
      },
      "geometry": {
        "type": "Point",
        "coordinates": [
          121.0324678,
          14.6510836
        ]
      },
      "id": "way/53198955"
    },
    {
      "type": "Feature",
      "properties": {
        "@id": "way/57648669",
        "addr:city": "Quezon City",
        "addr:street": "Timog Avenue",
        "building": "residential",
        "building:levels": "7",
        "name": "Victoria Towers",
        "@geometry": "center"
      },
      "geometry": {
        "type": "Point",
        "coordinates": [
          121.0275556,
          14.6360564
        ]
      },
      "id": "way/57648669"
    },
    {
      "type": "Feature",
      "properties": {
        "@id": "way/68194577",
        "addr:city": "Manila",
        "addr:postcode": "1004",
        "addr:province": "Metro Manila",
        "addr:street": "Taft Avenue",
        "building": "residential",
        "building:levels": "4",
        "name": "One Archers' Place",
        "previously": "node:255064622",
        "source": "Bing",
        "@geometry": "center"
      },
      "geometry": {
        "type": "Point",
        "coordinates": [
          120.9927454,
          14.5667895
        ]
      },
      "id": "way/68194577"
    },
    {
      "type": "Feature",
      "properties": {
        "@id": "way/71485553",
        "addr:city": "Mandaluyong",
        "addr:housenumber": "8",
        "addr:province": "Metro Manila",
        "addr:street": "Wack Wack Road",
        "building": "residential",
        "building:levels": "40",
        "fixme": "geometry",
        "height": "147.9",
        "layer": "-1",
        "name": "8 Wack Wack",
        "source": "Yahoo",
        "start_date": "2001",
        "wikidata": "Q30634594",
        "wikipedia": "en:8 Wack Wack Road",
        "@geometry": "center"
      },
      "geometry": {
        "type": "Point",
        "coordinates": [
          121.0496456,
          14.5863757
        ]
      },
      "id": "way/71485553"
    },
    {
      "type": "Feature",
      "properties": {
        "@id": "way/72656236",
        "addr:postcode": "1552",
        "addr:street": "EDSA",
        "building": "residential",
        "building:levels": "4",
        "height": "30.9",
        "name": "Grand Central Residences",
        "@geometry": "center"
      },
      "geometry": {
        "type": "Point",
        "coordinates": [
          121.0528507,
          14.5810007
        ]
      },
      "id": "way/72656236"
    },
    {
      "type": "Feature",
      "properties": {
        "@id": "way/73854667",
        "addr:city": "Manila",
        "addr:province": "Metro Manila",
        "building": "residential",
        "building:levels": "7",
        "name": "Vito Cruz Towers",
        "@geometry": "center"
      },
      "geometry": {
        "type": "Point",
        "coordinates": [
          120.9933396,
          14.5607023
        ]
      },
      "id": "way/73854667"
    },
    {
      "type": "Feature",
      "properties": {
        "@id": "way/80482888",
        "addr:city": "Makati",
        "addr:housenumber": "109",
        "addr:postcode": "1200",
        "addr:street": "Rada Street",
        "building": "residential",
        "building:levels": "25",
        "height": "93.5",
        "name": "The Frabella I",
        "@geometry": "center"
      },
      "geometry": {
        "type": "Point",
        "coordinates": [
          121.018089,
          14.5559709
        ]
      },
      "id": "way/80482888"
    },
    {
      "type": "Feature",
      "properties": {
        "@id": "way/82699977",
        "building": "residential",
        "building:levels": "15",
        "name": "Victoria Arts and Theater Tower",
        "@geometry": "center"
      },
      "geometry": {
        "type": "Point",
        "coordinates": [
          121.0424384,
          14.6336307
        ]
      },
      "id": "way/82699977"
    },
    {
      "type": "Feature",
      "properties": {
        "@id": "way/82699998",
        "building": "residential",
        "building:levels": "7",
        "name": "President Towers",
        "@geometry": "center"
      },
      "geometry": {
        "type": "Point",
        "coordinates": [
          121.0394394,
          14.6343666
        ]
      },
      "id": "way/82699998"
    },
    {
      "type": "Feature",
      "properties": {
        "@id": "way/84542510",
        "building": "residential",
        "building:levels": "3",
        "height": "15",
        "name": "Manhattan Parkview",
        "@geometry": "center"
      },
      "geometry": {
        "type": "Point",
        "coordinates": [
          121.0550231,
          14.6228872
        ]
      },
      "id": "way/84542510"
    },
    {
      "type": "Feature",
      "properties": {
        "@id": "way/85692793",
        "addr:city": "Parañaque",
        "building": "residential",
        "building:levels": "14",
        "height": "51.5",
        "name": "The Excelsior",
        "@geometry": "center"
      },
      "geometry": {
        "type": "Point",
        "coordinates": [
          120.9941241,
          14.525843
        ]
      },
      "id": "way/85692793"
    },
    {
      "type": "Feature",
      "properties": {
        "@id": "way/85692795",
        "addr:city": "Parañaque",
        "addr:street": "Roxas Boulevard",
        "building": "residential",
        "building:levels": "17",
        "height": "62.5",
        "name": "Crowne Bay Tower",
        "@geometry": "center"
      },
      "geometry": {
        "type": "Point",
        "coordinates": [
          120.9941084,
          14.5265543
        ]
      },
      "id": "way/85692795"
    },
    {
      "type": "Feature",
      "properties": {
        "@id": "way/87335578",
        "addr:city": "Manila",
        "addr:district": "Tondo",
        "addr:housenumber": "1411",
        "addr:postcode": "1012",
        "addr:province": "Metro Manila",
        "addr:street": "La Torre Street",
        "building": "residential",
        "building:levels": "8",
        "name": "Consolidated Condominium",
        "@geometry": "center"
      },
      "geometry": {
        "type": "Point",
        "coordinates": [
          120.9789191,
          14.6075407
        ]
      },
      "id": "way/87335578"
    },
    {
      "type": "Feature",
      "properties": {
        "@id": "way/88141833",
        "addr:city": "Muntinlupa",
        "addr:postcode": "1780",
        "addr:street": "Pansipit",
        "building": "residential",
        "source": "Yahoo",
        "@geometry": "center"
      },
      "geometry": {
        "type": "Point",
        "coordinates": [
          121.0223385,
          14.4109231
        ]
      },
      "id": "way/88141833"
    },
    {
      "type": "Feature",
      "properties": {
        "@id": "way/88141834",
        "addr:city": "Muntinlupa",
        "addr:postcode": "1780",
        "addr:street": "Caliraya",
        "building": "residential",
        "source": "Yahoo",
        "@geometry": "center"
      },
      "geometry": {
        "type": "Point",
        "coordinates": [
          121.02214,
          14.4093696
        ]
      },
      "id": "way/88141834"
    },
    {
      "type": "Feature",
      "properties": {
        "@id": "way/88141835",
        "addr:city": "Muntinlupa",
        "addr:postcode": "1780",
        "addr:street": "Caliraya",
        "building": "residential",
        "source": "Yahoo",
        "@geometry": "center"
      },
      "geometry": {
        "type": "Point",
        "coordinates": [
          121.0230466,
          14.4101489
        ]
      },
      "id": "way/88141835"
    },
    {
      "type": "Feature",
      "properties": {
        "@id": "way/88141836",
        "addr:city": "Muntinlupa",
        "addr:postcode": "1780",
        "addr:street": "Caliraya",
        "building": "residential",
        "source": "Yahoo",
        "@geometry": "center"
      },
      "geometry": {
        "type": "Point",
        "coordinates": [
          121.0232397,
          14.4098372
        ]
      },
      "id": "way/88141836"
    },
    {
      "type": "Feature",
      "properties": {
        "@id": "way/88141837",
        "addr:city": "Muntinlupa",
        "addr:postcode": "1780",
        "addr:street": "Ambuklao",
        "building": "residential",
        "source": "Yahoo",
        "@geometry": "center"
      },
      "geometry": {
        "type": "Point",
        "coordinates": [
          121.0231968,
          14.4084759
        ]
      },
      "id": "way/88141837"
    },
    {
      "type": "Feature",
      "properties": {
        "@id": "way/88141838",
        "addr:city": "Muntinlupa",
        "addr:postcode": "1780",
        "addr:street": "Dingalan",
        "building": "residential",
        "source": "Yahoo",
        "@geometry": "center"
      },
      "geometry": {
        "type": "Point",
        "coordinates": [
          121.0194384,
          14.4075695
        ]
      },
      "id": "way/88141838"
    },
    {
      "type": "Feature",
      "properties": {
        "@id": "way/88141839",
        "addr:city": "Muntinlupa",
        "addr:postcode": "1780",
        "addr:street": "Acacia Avenue",
        "building": "residential",
        "source": "Yahoo",
        "@geometry": "center"
      },
      "geometry": {
        "type": "Point",
        "coordinates": [
          121.015596,
          14.4085968
        ]
      },
      "id": "way/88141839"
    },
    {
      "type": "Feature",
      "properties": {
        "@id": "way/88141840",
        "addr:city": "Muntinlupa",
        "addr:postcode": "1780",
        "addr:street": "University Avenue",
        "building": "residential",
        "source": "Yahoo",
        "@geometry": "center"
      },
      "geometry": {
        "type": "Point",
        "coordinates": [
          121.0203537,
          14.4081226
        ]
      },
      "id": "way/88141840"
    },
    {
      "type": "Feature",
      "properties": {
        "@id": "way/88141842",
        "addr:city": "Muntinlupa",
        "addr:postcode": "1780",
        "addr:street": "Dingalan",
        "building": "residential",
        "source": "Yahoo",
        "@geometry": "center"
      },
      "geometry": {
        "type": "Point",
        "coordinates": [
          121.0200666,
          14.4077758
        ]
      },
      "id": "way/88141842"
    },
    {
      "type": "Feature",
      "properties": {
        "@id": "way/88141843",
        "addr:city": "Muntinlupa",
        "addr:postcode": "1780",
        "addr:street": "Ambuklao",
        "building": "residential",
        "source": "Yahoo",
        "@geometry": "center"
      },
      "geometry": {
        "type": "Point",
        "coordinates": [
          121.0235776,
          14.4088344
        ]
      },
      "id": "way/88141843"
    },
    {
      "type": "Feature",
      "properties": {
        "@id": "way/88141844",
        "addr:city": "Muntinlupa",
        "addr:postcode": "1780",
        "addr:street": "University Avenue",
        "building": "residential",
        "source": "Yahoo",
        "@geometry": "center"
      },
      "geometry": {
        "type": "Point",
        "coordinates": [
          121.0189376,
          14.4092173
        ]
      },
      "id": "way/88141844"
    },
    {
      "type": "Feature",
      "properties": {
        "@id": "way/88141846",
        "addr:city": "Muntinlupa",
        "addr:housenumber": "101",
        "addr:postcode": "1780",
        "addr:street": "Angat",
        "building": "residential",
        "source": "Yahoo",
        "@geometry": "center"
      },
      "geometry": {
        "type": "Point",
        "coordinates": [
          121.0213567,
          14.4114998
        ]
      },
      "id": "way/88141846"
    },
    {
      "type": "Feature",
      "properties": {
        "@id": "way/88141847",
        "addr:city": "Muntinlupa",
        "addr:housenumber": "102",
        "addr:postcode": "1780",
        "addr:street": "Angat",
        "building": "residential",
        "source": "Yahoo",
        "@geometry": "center"
      },
      "geometry": {
        "type": "Point",
        "coordinates": [
          121.0215017,
          14.4117751
        ]
      },
      "id": "way/88141847"
    },
    {
      "type": "Feature",
      "properties": {
        "@id": "way/88141848",
        "addr:city": "Muntinlupa",
        "addr:postcode": "1780",
        "addr:street": "San Juanico",
        "building": "residential",
        "source": "Yahoo",
        "@geometry": "center"
      },
      "geometry": {
        "type": "Point",
        "coordinates": [
          121.0244735,
          14.4105048
        ]
      },
      "id": "way/88141848"
    },
    {
      "type": "Feature",
      "properties": {
        "@id": "way/89830977",
        "addr:city": "Manila",
        "addr:province": "Metro Manila",
        "building": "residential",
        "building:levels": "8",
        "height": "28",
        "name": "Manila Executive Regency",
        "operator": "Cityland",
        "tourism": "apartment",
        "@geometry": "center"
      },
      "geometry": {
        "type": "Point",
        "coordinates": [
          120.9824139,
          14.5787802
        ]
      },
      "id": "way/89830977"
    },
    {
      "type": "Feature",
      "properties": {
        "@id": "way/90123959",
        "addr:city": "Manila",
        "addr:housenumber": "1160",
        "addr:province": "Metro Manila",
        "building": "residential",
        "building:levels": "6",
        "height": "18",
        "name": "Manila Residences Bocobo",
        "@geometry": "center"
      },
      "geometry": {
        "type": "Point",
        "coordinates": [
          120.9819084,
          14.5796774
        ]
      },
      "id": "way/90123959"
    },
    {
      "type": "Feature",
      "properties": {
        "@id": "way/96330633",
        "building": "residential",
        "@geometry": "center"
      },
      "geometry": {
        "type": "Point",
        "coordinates": [
          121.0487428,
          14.5676438
        ]
      },
      "id": "way/96330633"
    },
    {
      "type": "Feature",
      "properties": {
        "@id": "way/96705742",
        "building": "residential",
        "name": "Columbia Gardens",
        "@geometry": "center"
      },
      "geometry": {
        "type": "Point",
        "coordinates": [
          121.0857299,
          14.6821155
        ]
      },
      "id": "way/96705742"
    },
    {
      "type": "Feature",
      "properties": {
        "@id": "way/97191649",
        "addr:city": "Manila",
        "addr:province": "Metro Manila",
        "building": "residential",
        "building:levels": "21",
        "height": "75",
        "name": "Tower 2",
        "@geometry": "center"
      },
      "geometry": {
        "type": "Point",
        "coordinates": [
          120.9871428,
          14.6187776
        ]
      },
      "id": "way/97191649"
    },
    {
      "type": "Feature",
      "properties": {
        "@id": "way/97191654",
        "addr:city": "Manila",
        "addr:place": "Avida Tower San Lazaro",
        "addr:province": "Metro Manila",
        "building": "residential",
        "building:levels": "22",
        "height": "78.6",
        "name": "Tower 1",
        "@geometry": "center"
      },
      "geometry": {
        "type": "Point",
        "coordinates": [
          120.9875794,
          14.6187591
        ]
      },
      "id": "way/97191654"
    },
    {
      "type": "Feature",
      "properties": {
        "@id": "way/97206837",
        "addr:city": "Quezon City",
        "addr:street": "Palm Tree Avenue",
        "building": "residential",
        "building:levels": "36",
        "name": "LeGrand 1",
        "@geometry": "center"
      },
      "geometry": {
        "type": "Point",
        "coordinates": [
          121.081559,
          14.6080777
        ]
      },
      "id": "way/97206837"
    },
    {
      "type": "Feature",
      "properties": {
        "@id": "way/97206838",
        "addr:city": "Quezon City",
        "addr:postcode": "1110",
        "addr:street": "Palm Tree Avenue",
        "building": "residential",
        "building:levels": "36",
        "name": "LeGrand 2",
        "@geometry": "center"
      },
      "geometry": {
        "type": "Point",
        "coordinates": [
          121.0818232,
          14.6078259
        ]
      },
      "id": "way/97206838"
    },
    {
      "type": "Feature",
      "properties": {
        "@id": "way/99716168",
        "building": "residential",
        "name": "Arayat Mansion",
        "@geometry": "center"
      },
      "geometry": {
        "type": "Point",
        "coordinates": [
          121.0482958,
          14.619657
        ]
      },
      "id": "way/99716168"
    },
    {
      "type": "Feature",
      "properties": {
        "@id": "way/102234978",
        "building": "residential",
        "building:levels": "6",
        "height": "22",
        "name": "Cello Building",
        "@geometry": "center"
      },
      "geometry": {
        "type": "Point",
        "coordinates": [
          121.0466937,
          14.4458865
        ]
      },
      "id": "way/102234978"
    },
    {
      "type": "Feature",
      "properties": {
        "@id": "way/102234979",
        "building": "residential",
        "building:levels": "6",
        "height": "20",
        "name": "Clarinet Building",
        "@geometry": "center"
      },
      "geometry": {
        "type": "Point",
        "coordinates": [
          121.0462282,
          14.4455639
        ]
      },
      "id": "way/102234979"
    },
    {
      "type": "Feature",
      "properties": {
        "@id": "way/102234980",
        "building": "residential",
        "building:levels": "6",
        "height": "22",
        "name": "Harmonica Building",
        "@geometry": "center"
      },
      "geometry": {
        "type": "Point",
        "coordinates": [
          121.0466925,
          14.4454236
        ]
      },
      "id": "way/102234980"
    },
    {
      "type": "Feature",
      "properties": {
        "@id": "way/102234983",
        "building": "residential",
        "building:levels": "6",
        "height": "22",
        "name": "Mandolin Building",
        "@geometry": "center"
      },
      "geometry": {
        "type": "Point",
        "coordinates": [
          121.0463196,
          14.4449862
        ]
      },
      "id": "way/102234983"
    },
    {
      "type": "Feature",
      "properties": {
        "@id": "way/102234984",
        "building": "residential",
        "building:levels": "6",
        "height": "22",
        "name": "Lyre Building",
        "@geometry": "center"
      },
      "geometry": {
        "type": "Point",
        "coordinates": [
          121.0469469,
          14.444993
        ]
      },
      "id": "way/102234984"
    },
    {
      "type": "Feature",
      "properties": {
        "@id": "way/102234987",
        "building": "residential",
        "building:levels": "12",
        "height": "41",
        "name": "Viola Building",
        "@geometry": "center"
      },
      "geometry": {
        "type": "Point",
        "coordinates": [
          121.0479711,
          14.4455551
        ]
      },
      "id": "way/102234987"
    },
    {
      "type": "Feature",
      "properties": {
        "@id": "way/102234989",
        "building": "residential",
        "building:levels": "6",
        "height": "20",
        "name": "Maraca Building",
        "@geometry": "center"
      },
      "geometry": {
        "type": "Point",
        "coordinates": [
          121.0457909,
          14.4452201
        ]
      },
      "id": "way/102234989"
    },
    {
      "type": "Feature",
      "properties": {
        "@id": "way/102249792",
        "building": "residential",
        "building:levels": "6",
        "height": "20",
        "name": "Liana Building",
        "@geometry": "center"
      },
      "geometry": {
        "type": "Point",
        "coordinates": [
          121.0236632,
          14.6798531
        ]
      },
      "id": "way/102249792"
    },
    {
      "type": "Feature",
      "properties": {
        "@id": "way/102411906",
        "building": "residential",
        "layer": "2",
        "name": "Lirio's Apartment",
        "@geometry": "center"
      },
      "geometry": {
        "type": "Point",
        "coordinates": [
          121.0463057,
          14.6334213
        ]
      },
      "id": "way/102411906"
    },
    {
      "type": "Feature",
      "properties": {
        "@id": "way/103488652",
        "addr:city": "Mandaluyong City",
        "addr:housenumber": "128-C",
        "addr:postcode": "1550",
        "addr:province": "Metro Manila",
        "addr:street": "Pioneer Street",
        "building": "residential",
        "building:levels": "5",
        "height": "28.8",
        "name": "Pioneer Pointe",
        "operator": "Filinvest",
        "website": "http://www.filinvest.com.ph/filinvest/mid-rise-condominium/pioneer-pointe",
        "@geometry": "center"
      },
      "geometry": {
        "type": "Point",
        "coordinates": [
          121.0542523,
          14.5719925
        ]
      },
      "id": "way/103488652"
    },
    {
      "type": "Feature",
      "properties": {
        "@id": "way/106473318",
        "addr:city": "Taguig",
        "addr:province": "Metro Manila",
        "building": "residential",
        "name": "Woodridge Residences",
        "@geometry": "center"
      },
      "geometry": {
        "type": "Point",
        "coordinates": [
          121.052617,
          14.5353067
        ]
      },
      "id": "way/106473318"
    },
    {
      "type": "Feature",
      "properties": {
        "@id": "way/109688448",
        "addr:city": "Quezon City",
        "addr:housenumber": "60",
        "addr:street": "West Avenue",
        "building": "residential",
        "building:levels": "7",
        "height": "26.3",
        "name": "CBT Condominium",
        "@geometry": "center"
      },
      "geometry": {
        "type": "Point",
        "coordinates": [
          121.0276487,
          14.643914
        ]
      },
      "id": "way/109688448"
    },
    {
      "type": "Feature",
      "properties": {
        "@id": "way/112311962",
        "building": "residential",
        "building:levels": "30",
        "height": "114.7",
        "name": "The Aston",
        "@geometry": "center"
      },
      "geometry": {
        "type": "Point",
        "coordinates": [
          121.0535235,
          14.5468664
        ]
      },
      "id": "way/112311962"
    },
    {
      "type": "Feature",
      "properties": {
        "@id": "way/113365699",
        "addr:city": "Taguig",
        "addr:province": "Metro Manila",
        "building": "residential",
        "source": "Bing",
        "@geometry": "center"
      },
      "geometry": {
        "type": "Point",
        "coordinates": [
          121.0475924,
          14.528013
        ]
      },
      "id": "way/113365699"
    },
    {
      "type": "Feature",
      "properties": {
        "@id": "way/113365700",
        "addr:city": "Taguig",
        "addr:province": "Metro Manila",
        "building": "residential",
        "source": "Bing",
        "@geometry": "center"
      },
      "geometry": {
        "type": "Point",
        "coordinates": [
          121.0477826,
          14.5288216
        ]
      },
      "id": "way/113365700"
    },
    {
      "type": "Feature",
      "properties": {
        "@id": "way/113365701",
        "addr:city": "Taguig",
        "addr:province": "Metro Manila",
        "building": "residential",
        "source": "Bing",
        "@geometry": "center"
      },
      "geometry": {
        "type": "Point",
        "coordinates": [
          121.0471192,
          14.5277358
        ]
      },
      "id": "way/113365701"
    },
    {
      "type": "Feature",
      "properties": {
        "@id": "way/113365702",
        "addr:city": "Taguig",
        "addr:province": "Metro Manila",
        "building": "residential",
        "source": "Bing",
        "@geometry": "center"
      },
      "geometry": {
        "type": "Point",
        "coordinates": [
          121.0473169,
          14.5285551
        ]
      },
      "id": "way/113365702"
    },
    {
      "type": "Feature",
      "properties": {
        "@id": "way/113365703",
        "addr:city": "Taguig",
        "addr:province": "Metro Manila",
        "building": "residential",
        "source": "Bing",
        "@geometry": "center"
      },
      "geometry": {
        "type": "Point",
        "coordinates": [
          121.0456809,
          14.5269764
        ]
      },
      "id": "way/113365703"
    },
    {
      "type": "Feature",
      "properties": {
        "@id": "way/113365705",
        "addr:city": "Taguig",
        "addr:province": "Metro Manila",
        "building": "residential",
        "source": "Bing",
        "@geometry": "center"
      },
      "geometry": {
        "type": "Point",
        "coordinates": [
          121.0468913,
          14.5275644
        ]
      },
      "id": "way/113365705"
    },
    {
      "type": "Feature",
      "properties": {
        "@id": "way/113365707",
        "addr:city": "Taguig",
        "addr:province": "Metro Manila",
        "building": "residential",
        "source": "Bing",
        "@geometry": "center"
      },
      "geometry": {
        "type": "Point",
        "coordinates": [
          121.0470864,
          14.5284215
        ]
      },
      "id": "way/113365707"
    },
    {
      "type": "Feature",
      "properties": {
        "@id": "way/113365709",
        "addr:city": "Taguig",
        "addr:province": "Metro Manila",
        "building": "residential",
        "source": "Bing",
        "@geometry": "center"
      },
      "geometry": {
        "type": "Point",
        "coordinates": [
          121.0483004,
          14.5277636
        ]
      },
      "id": "way/113365709"
    },
    {
      "type": "Feature",
      "properties": {
        "@id": "way/113365710",
        "addr:city": "Taguig",
        "addr:province": "Metro Manila",
        "building": "residential",
        "source": "Bing",
        "@geometry": "center"
      },
      "geometry": {
        "type": "Point",
        "coordinates": [
          121.0466071,
          14.5281496
        ]
      },
      "id": "way/113365710"
    },
    {
      "type": "Feature",
      "properties": {
        "@id": "way/113365712",
        "addr:city": "Taguig",
        "addr:province": "Metro Manila",
        "building": "residential",
        "source": "Bing",
        "@geometry": "center"
      },
      "geometry": {
        "type": "Point",
        "coordinates": [
          121.0459737,
          14.5268587
        ]
      },
      "id": "way/113365712"
    },
    {
      "type": "Feature",
      "properties": {
        "@id": "way/113365714",
        "addr:city": "Taguig",
        "addr:province": "Metro Manila",
        "building": "residential",
        "source": "Bing",
        "@geometry": "center"
      },
      "geometry": {
        "type": "Point",
        "coordinates": [
          121.0477959,
          14.5275673
        ]
      },
      "id": "way/113365714"
    },
    {
      "type": "Feature",
      "properties": {
        "@id": "way/113365718",
        "addr:city": "Taguig",
        "addr:province": "Metro Manila",
        "building": "residential",
        "source": "Bing",
        "@geometry": "center"
      },
      "geometry": {
        "type": "Point",
        "coordinates": [
          121.0480475,
          14.5282912
        ]
      },
      "id": "way/113365718"
    },
    {
      "type": "Feature",
      "properties": {
        "@id": "way/113365721",
        "addr:city": "Taguig",
        "addr:province": "Metro Manila",
        "building": "residential",
        "source": "Bing",
        "@geometry": "center"
      },
      "geometry": {
        "type": "Point",
        "coordinates": [
          121.0475448,
          14.5274657
        ]
      },
      "id": "way/113365721"
    },
    {
      "type": "Feature",
      "properties": {
        "@id": "way/113365723",
        "addr:city": "Taguig",
        "addr:province": "Metro Manila",
        "building": "residential",
        "source": "Bing",
        "@geometry": "center"
      },
      "geometry": {
        "type": "Point",
        "coordinates": [
          121.0453402,
          14.5270334
        ]
      },
      "id": "way/113365723"
    },
    {
      "type": "Feature",
      "properties": {
        "@id": "way/113365728",
        "addr:city": "Taguig",
        "addr:province": "Metro Manila",
        "building": "residential",
        "source": "Bing",
        "@geometry": "center"
      },
      "geometry": {
        "type": "Point",
        "coordinates": [
          121.0461877,
          14.5280115
        ]
      },
      "id": "way/113365728"
    },
    {
      "type": "Feature",
      "properties": {
        "@id": "way/113365731",
        "addr:city": "Taguig",
        "addr:province": "Metro Manila",
        "building": "residential",
        "source": "Bing",
        "@geometry": "center"
      },
      "geometry": {
        "type": "Point",
        "coordinates": [
          121.047354,
          14.527879
        ]
      },
      "id": "way/113365731"
    },
    {
      "type": "Feature",
      "properties": {
        "@id": "way/113365733",
        "addr:city": "Taguig",
        "addr:province": "Metro Manila",
        "building": "residential",
        "source": "Bing",
        "@geometry": "center"
      },
      "geometry": {
        "type": "Point",
        "coordinates": [
          121.0475378,
          14.5286904
        ]
      },
      "id": "way/113365733"
    },
    {
      "type": "Feature",
      "properties": {
        "@id": "way/113365734",
        "addr:city": "Taguig",
        "addr:province": "Metro Manila",
        "building": "residential",
        "source": "Bing",
        "@geometry": "center"
      },
      "geometry": {
        "type": "Point",
        "coordinates": [
          121.0454982,
          14.5265397
        ]
      },
      "id": "way/113365734"
    },
    {
      "type": "Feature",
      "properties": {
        "@id": "way/113365738",
        "addr:city": "Taguig",
        "addr:province": "Metro Manila",
        "building": "residential",
        "source": "Bing",
        "@geometry": "center"
      },
      "geometry": {
        "type": "Point",
        "coordinates": [
          121.0458017,
          14.5272541
        ]
      },
      "id": "way/113365738"
    },
    {
      "type": "Feature",
      "properties": {
        "@id": "way/113365741",
        "addr:city": "Taguig",
        "addr:province": "Metro Manila",
        "building": "residential",
        "source": "Bing",
        "@geometry": "center"
      },
      "geometry": {
        "type": "Point",
        "coordinates": [
          121.0461246,
          14.5277485
        ]
      },
      "id": "way/113365741"
    },
    {
      "type": "Feature",
      "properties": {
        "@id": "way/113365749",
        "addr:city": "Taguig",
        "addr:province": "Metro Manila",
        "building": "residential",
        "source": "Bing",
        "@geometry": "center"
      },
      "geometry": {
        "type": "Point",
        "coordinates": [
          121.0468501,
          14.528279
        ]
      },
      "id": "way/113365749"
    },
    {
      "type": "Feature",
      "properties": {
        "@id": "way/113365750",
        "addr:city": "Taguig",
        "addr:province": "Metro Manila",
        "building": "residential",
        "source": "Bing",
        "@geometry": "center"
      },
      "geometry": {
        "type": "Point",
        "coordinates": [
          121.0460944,
          14.5271457
        ]
      },
      "id": "way/113365750"
    },
    {
      "type": "Feature",
      "properties": {
        "@id": "way/113365752",
        "addr:city": "Taguig",
        "addr:province": "Metro Manila",
        "building": "residential",
        "source": "Bing",
        "@geometry": "center"
      },
      "geometry": {
        "type": "Point",
        "coordinates": [
          121.0480462,
          14.5276664
        ]
      },
      "id": "way/113365752"
    },
    {
      "type": "Feature",
      "properties": {
        "@id": "way/113365758",
        "addr:city": "Taguig",
        "addr:province": "Metro Manila",
        "building": "residential",
        "source": "Bing",
        "@geometry": "center"
      },
      "geometry": {
        "type": "Point",
        "coordinates": [
          121.0478231,
          14.5281491
        ]
      },
      "id": "way/113365758"
    },
    {
      "type": "Feature",
      "properties": {
        "@id": "way/113365761",
        "addr:city": "Taguig",
        "addr:province": "Metro Manila",
        "building": "residential",
        "source": "Bing",
        "@geometry": "center"
      },
      "geometry": {
        "type": "Point",
        "coordinates": [
          121.0454806,
          14.5273771
        ]
      },
      "id": "way/113365761"
    },
    {
      "type": "Feature",
      "properties": {
        "@id": "way/113365763",
        "addr:city": "Taguig",
        "addr:province": "Metro Manila",
        "building": "residential",
        "source": "Bing",
        "@geometry": "center"
      },
      "geometry": {
        "type": "Point",
        "coordinates": [
          121.0472903,
          14.5273704
        ]
      },